{"type":"FeatureCollection","features":[{"type":"Feature","geometry":{"type":"Point","coordinates":[-0.702397532786526,40.9528226665419]},"properties":{"type":"RESERVOIR_SAMPLE","name":" Martín en Alcaine","chlorine":0.0,"ph":0.0,"temperature":0.0,"timeStamp":"Apr 15, 2013 12:00:00 AM","qualityIndex":0.0}},{"type":"Feature","geometry":{"type":"Point","coordinates":[-0.81276601298009,41.7347293702713]},"properties":{"type":"RESERVOIR_SAMPLE","name":" Gállego en Villanueva","chlorine":0.0,"ph":8.2,"temperature":14.5,"timeStamp":"Apr 12, 2015 12:00:00 AM","qualityIndex":0.0}},{"type":"Feature","geometry":{"type":"Point","coordinates":[0.166050476290847,41.8906256661989]},"properties":{"type":"RESERVOIR_SAMPLE","name":" Cinca en Monzón","chlorine":0.0,"ph":8.36,"temperature":12.4,"timeStamp":"Apr 12, 2015 12:00:00 AM","qualityIndex":0.0}},{"type":"Feature","geometry":{"type":"Point","coordinates":[-5.36303430013979,41.6034205314065]},"properties":{"type":"RESERVOIR_SAMPLE","name":" Canal de Serós en Lleida","chlorine":0.0,"ph":8.36,"temperature":13.3,"timeStamp":"Apr 12, 2015 12:00:00 AM","qualityIndex":0.0}},{"type":"Feature","geometry":{"type":"Point","coordinates":[-2.52115141148609,42.3213377232488]},"properties":{"type":"RESERVOIR_SAMPLE","name":" Iregua en Islallana","chlorine":0.0,"ph":8.13,"temperature":9.9,"timeStamp":"Apr 12, 2015 12:00:00 AM","qualityIndex":0.0}},{"type":"Feature","geometry":{"type":"Point","coordinates":[-2.89558276190818,42.6793459994185]},"properties":{"type":"RESERVOIR_SAMPLE","name":" Zadorra en Arce","chlorine":0.0,"ph":8.36,"temperature":13.2,"timeStamp":"Apr 12, 2015 12:00:00 AM","qualityIndex":0.0}},{"type":"Feature","geometry":{"type":"Point","coordinates":[0.497152993647646,40.9070653733839]},"properties":{"type":"RESERVOIR_SAMPLE","name":" Ebro en Xerta","chlorine":0.0,"ph":8.35,"temperature":15.1,"timeStamp":"Apr 12, 2015 12:00:00 AM","qualityIndex":0.0}},{"type":"Feature","geometry":{"type":"Point","coordinates":[-2.8388965822895,42.5958968988129]},"properties":{"type":"RESERVOIR_SAMPLE","name":" Ebro en Haro","chlorine":0.0,"ph":8.12,"temperature":13.4,"timeStamp":"Apr 12, 2015 12:00:00 AM","qualityIndex":0.0}},{"type":"Feature","geometry":{"type":"Point","coordinates":[0.612809794770966,41.1675965251547]},"properties":{"type":"RESERVOIR_SAMPLE","name":" Ebro en Ascó","chlorine":0.0,"ph":8.27,"temperature":14.3,"timeStamp":"Apr 12, 2015 12:00:00 AM","qualityIndex":0.0}},{"type":"Feature","geometry":{"type":"Point","coordinates":[-0.690935351713599,41.5681767867815]},"properties":{"type":"RESERVOIR_SAMPLE","name":" Ebro en Presa Pina","chlorine":0.0,"ph":8.07,"temperature":14.6,"timeStamp":"Apr 12, 2015 12:00:00 AM","qualityIndex":0.0}},{"type":"Feature","geometry":{"type":"Point","coordinates":[-0.386639641008635,42.4743912254612]},"properties":{"type":"RESERVOIR_SAMPLE","name":" Gállego en Jabarrella","chlorine":0.0,"ph":8.31,"temperature":8.5,"timeStamp":"Apr 12, 2015 12:00:00 AM","qualityIndex":0.0}},{"type":"Feature","geometry":{"type":"Point","coordinates":[-1.78476898570141,42.8978267842879]},"properties":{"type":"RESERVOIR_SAMPLE","name":" Arga en Echauri","chlorine":0.0,"ph":8.55,"temperature":13.0,"timeStamp":"Apr 12, 2015 12:00:00 AM","qualityIndex":0.0}},{"type":"Feature","geometry":{"type":"Point","coordinates":[-1.55955964846833,42.0289937418295]},"properties":{"type":"RESERVOIR_SAMPLE","name":" Ebro en Pignatelli (El Bocal)","chlorine":0.0,"ph":8.2,"temperature":14.1,"timeStamp":"Apr 12, 2015 12:00:00 AM","qualityIndex":0.0}},{"type":"Feature","geometry":{"type":"Point","coordinates":[-2.95429550869151,42.6895157586749]},"properties":{"type":"RESERVOIR_SAMPLE","name":" Ebro en Miranda","chlorine":0.0,"ph":8.42,"temperature":12.3,"timeStamp":"Apr 12, 2015 12:00:00 AM","qualityIndex":0.0}}]}